{"name":"FREESPACE","locations":[{"name":"FREESPACE","description":"Provides a community space to for recreation, learning and civic innovation.","short_desc":"8th Street","address_attributes":{"street":"1131 Mission Street ","city":"San Francisco","state":"CA","zip":"94103"},"hours":null,"accessibility":[],"contacts_attributes":[{"name":"Morgan Fitzgibbons","title":"NA"}],"coordinates":["-122.410448","37.773969"],"emails":["freespace@gmail.com","freespace1131@gmail.com"],"faxes_attributes":[],"kind":"","languages":[],"phones_attributes":[],"transportation":" ","urls":["http://freespace.io/"],"services_attributes":[{"audience":null,"eligibility":null,"fees":null,"how_to_apply":" ","service_areas":[],"keywords":[],"funding_sources":[]}],"mail_address_attributes":{"street":" ","city":null,"state":"CA","zip":""}},{"name":"FREESPACE","description":null,"short_desc":"NA","address_attributes":{"street":"1131 Mission Street ","city":"San Francisco","state":"CA","zip":"94103"},"hours":null,"accessibility":[],"contacts_attributes":[],"coordinates":["-122.410448","37.773969"],"emails":["freespace1131@gmail.com"],"faxes_attributes":[],"kind":"","languages":[],"phones_attributes":[],"transportation":" ","urls":["http://freespace.io/"],"services_attributes":[{"audience":null,"eligibility":null,"fees":null,"how_to_apply":" ","service_areas":[],"keywords":[],"funding_sources":[]}],"mail_address_attributes":{"street":" ","city":null,"state":"CA","zip":""}}],"urls":["http://freespace.io/"]}